latitude,longitude,city,country
52.52,14.42,Berlin,Germany
50.11,8.68,Frankfurt,Germany
48.13,11.58,Munich,Germany
47.50,19.04,Budapest,Hungary
46.25,20.14,Szeged,Hungary
47.37,8.54,Zurich,Switzerland
